{ "id": 21642,  "name": "Spadina & Dundas", "coordinates":[    43.65294,    -79.398523  ], "type": "Branch", "address": "292 Spadina Avenue", "city": "Toronto", "state": "ON", "zip": "M5T 2E7", "phone": "(416) 866-4612",   "fax": "(416) 866-6361", "country": "Canada",  "countrycode": "CA", "county": "Toronto Division"}
{ "idr": 21691, "name": "Brossard Dix/30", "coordinates":[    45.4437754,    -73.4408348  ], "type": "Branch", "address": "7240 Boul Du Quartier", "city": "Brossard", "state": "QC",  "zip": "J4Y 0B5",  "phone": "(450) 923-3003", "fax": "(450) 923-3040", "country": "Canada", "countrycode": "CA", "county": "Champlain"}
{ "id": 21782, "name": "Trenton", "coordinates":[    44.1005374,    -77.5774344  ], "type": "Branch", "address": "68 Dundas Street West",  "city": "Trenton", "state": "ON", "zip": "K8V 3P3", "Phone": "(613) 392-2531",  "fax": "(613) 392-4296",  "country": "Canada", "countrycode": "CA", "county": "Hastings County"}
{ "id": 21832, "name": "Wellington", "coordinates":[    43.9517367,    -77.3501346  ], "type": "Branch", "address": "288 Main Street", "city": "Wellington", "state": "ON", "zip": "K0K 3L0", "Phone": "(613) 399-1375", "fax": "(613) 399-1376","country": "Canada", "Countrycode": "CA","county": "Prince Edward County"}
{ "id": 21873, "name": "Colby Village Shopping Centre", "coordinates":[    44.6702506,    -63.49807  ], "type": "Branch", "address": "912 Cole Harbour Road", "city": "Dartmouth", "state": "NS", "zip": "B2V 2J5", "phone": "(902) 420-4958", "Fax02) 435-0172", "country": "Canada", "countrycode": "CA", "county": "Halifax Regional Municipality"}
{ "id": 21949, "name": "The Grange", "coordinates":[    53.5096905,    -113.6760345  ], "type": "Branch", "address": "2466 Guardian Road North West", "city": "Edmonton", "state": "AB", "zip": "T5T 1K8", "phone": "(780) 442-0340", "fax": "(780) 442-0344","country": "Canada", "countrycode": "CA","county": "Division No. 11"}
{ "id": 21972, "name": "Hamilton Road & Highbury Avenue", "coordinates":[    42.978026,    -81.1938487  ], "type": "Branch", "address": "950 Hamilton Road", "city": "London", "State": "ON", "zip": "N5W 1A1", "phone": "(519) 451-1880", "fax": "(519) 451-5287","country": "Canada", "countrycode": "CA", "county": "Middlesex County"}
{ "id": 22129, "name": "Lancaster Centre", "coordinates":[    52.2381435,    -113.7653836  ], "type": "Branch",  "address": "2950 22nd Street #110",  "city": "Red Deer", "state": "AB", "zip": "T4R 0H9", "phone": "(403) 341-7740", "fax": "(403) 341-7745","country": "Canada", "countrycode": "CA", "county": "Division No. 8"}
{ "id": 22152, "name": "Yorkdale Shopping Centre", "coordinates":[    43.7256702,    -79.452168  ], "type": "Branch", "address": "3401 Dufferin Street",  "city": "North York", "state": "ON", "zip": "M6A 2T9", "phone": "(416) 784-5124", "fax": "(416) 784-2031","country": "Canada", "country Code": "CA",  "county": "Toronto Division"}
{ "id": 22251, "name": "Fairview-Pointe Claire", "coordinates":[    45.4647816,    -73.831773  ], "type": "Branch", "address": "6815 Route Transcanadienne",  "city": "Pointe Claire", "state": "QC", "zip": "H9R 1C4", "phone": "(514) 695-5230", "fax": "(514) 695-1505", "country": "Canada", "countrycode": "CA", "county": "CommunautÃ©-Urbaine-de-MontrÃ©al"}
